{
"type": "FeatureCollection",
"name": "provider_locations",
"crs": { "type": "name", "properties": { "name": "urn:ogc:def:crs:OGC:1.3:CRS84" } },
"features": [
{ "type": "Feature", "properties": { "org_id": "R0A", "name": "MANCHESTER UNIVERSITY NHS FOUNDATION TRUST", "postcode": "M13 9WL" }, "geometry": { "type": "Point", "coordinates": [ -2.227709, 53.462452 ] } },
{ "type": "Feature", "properties": { "org_id": "R0B", "name": "SOUTH TYNESIDE AND SUNDERLAND NHS FOUNDATION TRUST", "postcode": "SR4 7TP" }, "geometry": { "type": "Point", "coordinates": [ -1.410327, 54.902214 ] } },
{ "type": "Feature", "properties": { "org_id": "R0D", "name": "UNIVERSITY HOSPITALS DORSET NHS FOUNDATION TRUST", "postcode": "BH15 2JB" }, "geometry": { "type": "Point", "coordinates": [ -1.97311, 50.721977 ] } },
{ "type": "Feature", "properties": { "org_id": "R1F", "name": "ISLE OF WIGHT NHS TRUST", "postcode": "PO30 5TG" }, "geometry": { "type": "Point", "coordinates": [ -1.301363, 50.710832 ] } },
{ "type": "Feature", "properties": { "org_id": "R1H", "name": "BARTS HEALTH NHS TRUST", "postcode": "E1 2ES" }, "geometry": { "type": "Point", "coordinates": [ -0.056023, 51.517168 ] } },
{ "type": "Feature", "properties": { "org_id": "R1K", "name": "LONDON NORTH WEST UNIVERSITY HEALTHCARE NHS TRUST", "postcode": "HA1 3UJ" }, "geometry": { "type": "Point", "coordinates": [ -0.322015, 51.575409 ] } },
{ "type": "Feature", "properties": { "org_id": "RA2", "name": "ROYAL SURREY NHS FOUNDATION TRUST", "postcode": "GU2 7XX" }, "geometry": { "type": "Point", "coordinates": [ -0.607443, 51.241012 ] } },
{ "type": "Feature", "properties": { "org_id": "RA7", "name": "BRISTOL NHS FOUNDATION TRUST", "postcode": "BS1 3NU" }, "geometry": { "type": "Point", "coordinates": [ -2.593021, 51.459476 ] } },
{ "type": "Feature", "properties": { "org_id": "RA9", "name": "TORBAY AND SOUTH DEVON NHS FOUNDATION TRUST", "postcode": "TQ2 7AA" }, "geometry": { "type": "Point", "coordinates": [ -3.553819, 50.482303 ] } },
{ "type": "Feature", "properties": { "org_id": "RAE", "name": "BRADFORD TEACHING HOSPITALS NHS FOUNDATION TRUST", "postcode": "BD9 6RJ" }, "geometry": { "type": "Point", "coordinates": [ -1.7947, 53.805995 ] } },
{ "type": "Feature", "properties": { "org_id": "RAJ", "name": "MID AND SOUTH ESSEX NHS FOUNDATION TRUST", "postcode": "SS0 0RY" }, "geometry": { "type": "Point", "coordinates": [ 0.688646, 51.553842 ] } },
{ "type": "Feature", "properties": { "org_id": "RAL", "name": "ROYAL FREE LONDON NHS FOUNDATION TRUST", "postcode": "NW3 2QG" }, "geometry": { "type": "Point", "coordinates": [ -0.165298, 51.553227 ] } },
{ "type": "Feature", "properties": { "org_id": "RAN", "name": "ROYAL NATIONAL ORTHOPAEDIC HOSPITAL NHS TRUST", "postcode": "HA7 4LP" }, "geometry": { "type": "Point", "coordinates": [ -0.310412, 51.632569 ] } },
{ "type": "Feature", "properties": { "org_id": "RAS", "name": "THE HILLINGDON HOSPITALS NHS FOUNDATION TRUST", "postcode": "UB8 3NN" }, "geometry": { "type": "Point", "coordinates": [ -0.461155, 51.526078 ] } },
{ "type": "Feature", "properties": { "org_id": "RAX", "name": "KINGSTON AND RICHMOND NHS FOUNDATION TRUST", "postcode": "KT2 7QB" }, "geometry": { "type": "Point", "coordinates": [ -0.282602, 51.414826 ] } },
{ "type": "Feature", "properties": { "org_id": "RBD", "name": "DORSET COUNTY HOSPITAL NHS FOUNDATION TRUST", "postcode": "DT1 2JY" }, "geometry": { "type": "Point", "coordinates": [ -2.446934, 50.712931 ] } },
{ "type": "Feature", "properties": { "org_id": "RBK", "name": "WALSALL HEALTHCARE NHS TRUST", "postcode": "WS2 9PS" }, "geometry": { "type": "Point", "coordinates": [ -1.998918, 52.582346 ] } },
{ "type": "Feature", "properties": { "org_id": "RBL", "name": "WIRRAL UNIVERSITY TEACHING HOSPITAL NHS FOUNDATION TRUST", "postcode": "CH49 5PE" }, "geometry": { "type": "Point", "coordinates": [ -3.096815, 53.36964 ] } },
{ "type": "Feature", "properties": { "org_id": "RBN", "name": "MERSEY AND WEST LANCASHIRE TEACHING HOSPITALS NHS TRUST", "postcode": "L35 5DR" }, "geometry": { "type": "Point", "coordinates": [ -2.784953, 53.420485 ] } },
{ "type": "Feature", "properties": { "org_id": "RBQ", "name": "LIVERPOOL HEART AND CHEST HOSPITAL NHS FOUNDATION TRUST", "postcode": "L14 3PE" }, "geometry": { "type": "Point", "coordinates": [ -2.897989, 53.411167 ] } },
{ "type": "Feature", "properties": { "org_id": "RBS", "name": "ALDER HEY CHILDREN'S NHS FOUNDATION TRUST", "postcode": "L12 2AP" }, "geometry": { "type": "Point", "coordinates": [ -2.897796, 53.421263 ] } },
{ "type": "Feature", "properties": { "org_id": "RBT", "name": "MID CHESHIRE HOSPITALS NHS FOUNDATION TRUST", "postcode": "CW1 4QJ" }, "geometry": { "type": "Point", "coordinates": [ -2.475863, 53.117701 ] } },
{ "type": "Feature", "properties": { "org_id": "RBV", "name": "THE CHRISTIE NHS FOUNDATION TRUST", "postcode": "M20 4BX" }, "geometry": { "type": "Point", "coordinates": [ -2.230124, 53.429783 ] } },
{ "type": "Feature", "properties": { "org_id": "RC9", "name": "BEDFORDSHIRE HOSPITALS NHS FOUNDATION TRUST", "postcode": "LU4 0DZ" }, "geometry": { "type": "Point", "coordinates": [ -0.474153, 51.894292 ] } },
{ "type": "Feature", "properties": { "org_id": "RCB", "name": "YORK AND SCARBOROUGH TEACHING HOSPITALS NHS FOUNDATION TRUST", "postcode": "YO31 8HE" }, "geometry": { "type": "Point", "coordinates": [ -1.084294, 53.96897 ] } },
{ "type": "Feature", "properties": { "org_id": "RCD", "name": "HARROGATE AND DISTRICT NHS FOUNDATION TRUST", "postcode": "HG2 7SX" }, "geometry": { "type": "Point", "coordinates": [ -1.517579, 53.993822 ] } },
{ "type": "Feature", "properties": { "org_id": "RCF", "name": "AIREDALE NHS FOUNDATION TRUST", "postcode": "BD20 6TD" }, "geometry": { "type": "Point", "coordinates": [ -1.962729, 53.897957 ] } },
{ "type": "Feature", "properties": { "org_id": "RCU", "name": "SHEFFIELD CHILDREN'S NHS FOUNDATION TRUST", "postcode": "S10 2TH" }, "geometry": { "type": "Point", "coordinates": [ -1.490628, 53.380617 ] } },
{ "type": "Feature", "properties": { "org_id": "RCX", "name": "THE QUEEN ELIZABETH HOSPITAL, KING'S LYNN, NHS FOUNDATION TRUST", "postcode": "PE30 4ET" }, "geometry": { "type": "Point", "coordinates": [ 0.446694, 52.75663 ] } },
{ "type": "Feature", "properties": { "org_id": "RD1", "name": "ROYAL UNITED HOSPITALS BATH NHS FOUNDATION TRUST", "postcode": "BA1 3NG" }, "geometry": { "type": "Point", "coordinates": [ -2.391217, 51.391662 ] } },
{ "type": "Feature", "properties": { "org_id": "RD8", "name": "MILTON KEYNES UNIVERSITY HOSPITAL NHS FOUNDATION TRUST", "postcode": "MK6 5LD" }, "geometry": { "type": "Point", "coordinates": [ -0.73576, 52.026384 ] } },
{ "type": "Feature", "properties": { "org_id": "RDE", "name": "EAST SUFFOLK AND NORTH ESSEX NHS FOUNDATION TRUST", "postcode": "CO4 5JL" }, "geometry": { "type": "Point", "coordinates": [ 0.899242, 51.910174 ] } },
{ "type": "Feature", "properties": { "org_id": "RDU", "name": "FRIMLEY HEALTH NHS FOUNDATION TRUST", "postcode": "GU16 7UJ" }, "geometry": { "type": "Point", "coordinates": [ -0.742011, 51.319666 ] } },
{ "type": "Feature", "properties": { "org_id": "REF", "name": "ROYAL CORNWALL HOSPITALS NHS TRUST", "postcode": "TR1 3LJ" }, "geometry": { "type": "Point", "coordinates": [ -5.091511, 50.266675 ] } },
{ "type": "Feature", "properties": { "org_id": "REM", "name": "LIVERPOOL UNIVERSITY HOSPITALS NHS FOUNDATION TRUST", "postcode": "L7 8XP" }, "geometry": { "type": "Point", "coordinates": [ -2.964809, 53.409523 ] } },
{ "type": "Feature", "properties": { "org_id": "REN", "name": "THE CLATTERBRIDGE CANCER CENTRE NHS FOUNDATION TRUST", "postcode": "CH63 4JY" }, "geometry": { "type": "Point", "coordinates": [ -3.025849, 53.332283 ] } },
{ "type": "Feature", "properties": { "org_id": "REP", "name": "LIVERPOOL WOMEN'S NHS FOUNDATION TRUST", "postcode": "L8 7SS" }, "geometry": { "type": "Point", "coordinates": [ -2.960077, 53.398478 ] } },
{ "type": "Feature", "properties": { "org_id": "RET", "name": "THE WALTON CENTRE NHS FOUNDATION TRUST", "postcode": "L9 7LJ" }, "geometry": { "type": "Point", "coordinates": [ -2.930999, 53.466411 ] } },
{ "type": "Feature", "properties": { "org_id": "RF4", "name": "BARKING, HAVERING AND REDBRIDGE UNIVERSITY HOSPITALS NHS TRUST", "postcode": "RM7 0AG" }, "geometry": { "type": "Point", "coordinates": [ 0.179058, 51.568649 ] } },
{ "type": "Feature", "properties": { "org_id": "RFF", "name": "BARNSLEY HOSPITAL NHS FOUNDATION TRUST", "postcode": "S75 2EP" }, "geometry": { "type": "Point", "coordinates": [ -1.499495, 53.55915 ] } },
{ "type": "Feature", "properties": { "org_id": "RFR", "name": "THE ROTHERHAM NHS FOUNDATION TRUST", "postcode": "S60 2UD" }, "geometry": { "type": "Point", "coordinates": [ -1.342881, 53.413991 ] } },
{ "type": "Feature", "properties": { "org_id": "RFS", "name": "CHESTERFIELD ROYAL HOSPITAL NHS FOUNDATION TRUST", "postcode": "S44 5BL" }, "geometry": { "type": "Point", "coordinates": [ -1.394195, 53.235916 ] } },
{ "type": "Feature", "properties": { "org_id": "RGM", "name": "ROYAL PAPWORTH HOSPITAL NHS FOUNDATION TRUST", "postcode": "CB2 0AY" }, "geometry": { "type": "Point", "coordinates": [ 0.136045, 52.173522 ] } },
{ "type": "Feature", "properties": { "org_id": "RGN", "name": "NORTH WEST ANGLIA NHS FOUNDATION TRUST", "postcode": "PE3 9GZ" }, "geometry": { "type": "Point", "coordinates": [ -0.279371, 52.58394 ] } },
{ "type": "Feature", "properties": { "org_id": "RGP", "name": "JAMES PAGET UNIVERSITY HOSPITALS NHS FOUNDATION TRUST", "postcode": "NR31 6LA" }, "geometry": { "type": "Point", "coordinates": [ 1.718003, 52.561697 ] } },
{ "type": "Feature", "properties": { "org_id": "RGR", "name": "WEST SUFFOLK NHS FOUNDATION TRUST", "postcode": "IP33 2QZ" }, "geometry": { "type": "Point", "coordinates": [ 0.709205, 52.231679 ] } },
{ "type": "Feature", "properties": { "org_id": "RGT", "name": "CAMBRIDGE UNIVERSITY HOSPITALS NHS FOUNDATION TRUST", "postcode": "CB2 0QQ" }, "geometry": { "type": "Point", "coordinates": [ 0.14065, 52.175003 ] } },
{ "type": "Feature", "properties": { "org_id": "RH5", "name": "SOMERSET NHS FOUNDATION TRUST", "postcode": "TA1 5DA" }, "geometry": { "type": "Point", "coordinates": [ -3.121702, 51.011569 ] } },
{ "type": "Feature", "properties": { "org_id": "RH8", "name": "ROYAL DEVON UNIVERSITY HEALTHCARE NHS FOUNDATION TRUST", "postcode": "EX2 5DW" }, "geometry": { "type": "Point", "coordinates": [ -3.506694, 50.716692 ] } },
{ "type": "Feature", "properties": { "org_id": "RHM", "name": "UNIVERSITY HOSPITAL SOUTHAMPTON NHS FOUNDATION TRUST", "postcode": "SO16 6YD" }, "geometry": { "type": "Point", "coordinates": [ -1.435095, 50.933011 ] } },
{ "type": "Feature", "properties": { "org_id": "RHQ", "name": "SHEFFIELD TEACHING HOSPITALS NHS FOUNDATION TRUST", "postcode": "S5 7AU" }, "geometry": { "type": "Point", "coordinates": [ -1.455966, 53.409821 ] } },
{ "type": "Feature", "properties": { "org_id": "RHU", "name": "PORTSMOUTH HOSPITALS UNIVERSITY NHS TRUST", "postcode": "PO6 3LY" }, "geometry": { "type": "Point", "coordinates": [ -1.069917, 50.850287 ] } },
{ "type": "Feature", "properties": { "org_id": "RHW", "name": "ROYAL BERKSHIRE NHS FOUNDATION TRUST", "postcode": "RG1 5AN" }, "geometry": { "type": "Point", "coordinates": [ -0.95931, 51.451023 ] } },
{ "type": "Feature", "properties": { "org_id": "RJ1", "name": "GUY'S AND ST THOMAS' NHS FOUNDATION TRUST", "postcode": "SE1 7EH" }, "geometry": { "type": "Point", "coordinates": [ -0.11888, 51.49796 ] } },
{ "type": "Feature", "properties": { "org_id": "RJ2", "name": "LEWISHAM AND GREENWICH NHS TRUST", "postcode": "SE13 6LH" }, "geometry": { "type": "Point", "coordinates": [ -0.017917, 51.453022 ] } },
{ "type": "Feature", "properties": { "org_id": "RJ6", "name": "CROYDON HEALTH SERVICES NHS TRUST", "postcode": "CR7 7YE" }, "geometry": { "type": "Point", "coordinates": [ -0.108758, 51.389128 ] } },
{ "type": "Feature", "properties": { "org_id": "RJ7", "name": "ST GEORGE'S UNIVERSITY HOSPITALS NHS FOUNDATION TRUST", "postcode": "SW17 0QT" }, "geometry": { "type": "Point", "coordinates": [ -0.175694, 51.426682 ] } },
{ "type": "Feature", "properties": { "org_id": "RJC", "name": "SOUTH WARWICKSHIRE UNIVERSITY NHS FOUNDATION TRUST", "postcode": "CV34 5BW" }, "geometry": { "type": "Point", "coordinates": [ -1.583203, 52.289965 ] } },
{ "type": "Feature", "properties": { "org_id": "RJE", "name": "UNIVERSITY HOSPITALS OF NORTH MIDLANDS NHS TRUST", "postcode": "ST4 6QG" }, "geometry": { "type": "Point", "coordinates": [ -2.211798, 53.003262 ] } },
{ "type": "Feature", "properties": { "org_id": "RJL", "name": "NORTHERN LINCOLNSHIRE AND GOOLE NHS FOUNDATION TRUST", "postcode": "DN33 2BA" }, "geometry": { "type": "Point", "coordinates": [ -0.096293, 53.544883 ] } },
{ "type": "Feature", "properties": { "org_id": "RJN", "name": "EAST CHESHIRE NHS TRUST", "postcode": "SK10 3BL" }, "geometry": { "type": "Point", "coordinates": [ -2.141072, 53.262339 ] } },
{ "type": "Feature", "properties": { "org_id": "RJR", "name": "COUNTESS OF CHESTER HOSPITAL NHS FOUNDATION TRUST", "postcode": "CH2 1UL" }, "geometry": { "type": "Point", "coordinates": [ -2.897886, 53.208816 ] } },
{ "type": "Feature", "properties": { "org_id": "RJZ", "name": "KING'S COLLEGE HOSPITAL NHS FOUNDATION TRUST", "postcode": "SE5 9RS" }, "geometry": { "type": "Point", "coordinates": [ -0.09389, 51.468078 ] } },
{ "type": "Feature", "properties": { "org_id": "RK5", "name": "SHERWOOD FOREST HOSPITALS NHS FOUNDATION TRUST", "postcode": "NG17 4JL" }, "geometry": { "type": "Point", "coordinates": [ -1.233579, 53.134573 ] } },
{ "type": "Feature", "properties": { "org_id": "RK9", "name": "UNIVERSITY HOSPITALS PLYMOUTH NHS TRUST", "postcode": "PL6 8DH" }, "geometry": { "type": "Point", "coordinates": [ -4.113712, 50.416707 ] } },
{ "type": "Feature", "properties": { "org_id": "RKB", "name": "UNIVERSITY HOSPITALS COVENTRY AND WARWICKSHIRE NHS TRUST", "postcode": "CV2 2DX" }, "geometry": { "type": "Point", "coordinates": [ -1.438395, 52.421229 ] } },
{ "type": "Feature", "properties": { "org_id": "RKE", "name": "WHITTINGTON HEALTH NHS TRUST", "postcode": "N19 5NF" }, "geometry": { "type": "Point", "coordinates": [ -0.139066, 51.566482 ] } },
{ "type": "Feature", "properties": { "org_id": "RL1", "name": "THE ROBERT JONES AND AGNES HUNT ORTHOPAEDIC HOSPITAL NHS FOUNDATION TRUST", "postcode": "SY10 7AG" }, "geometry": { "type": "Point", "coordinates": [ -3.032684, 52.884226 ] } },
{ "type": "Feature", "properties": { "org_id": "RL4", "name": "THE ROYAL WOLVERHAMPTON NHS TRUST", "postcode": "WV10 0QP" }, "geometry": { "type": "Point", "coordinates": [ -2.095549, 52.599738 ] } },
{ "type": "Feature", "properties": { "org_id": "RLQ", "name": "WYE VALLEY NHS TRUST", "postcode": "HR1 2ER" }, "geometry": { "type": "Point", "coordinates": [ -2.707776, 52.058529 ] } },
{ "type": "Feature", "properties": { "org_id": "RLT", "name": "GEORGE ELIOT HOSPITAL NHS TRUST", "postcode": "CV10 7DJ" }, "geometry": { "type": "Point", "coordinates": [ -1.478431, 52.512597 ] } },
{ "type": "Feature", "properties": { "org_id": "RM1", "name": "NORFOLK AND NORWICH UNIVERSITY HOSPITALS NHS FOUNDATION TRUST", "postcode": "NR4 7UY" }, "geometry": { "type": "Point", "coordinates": [ 1.221195, 52.617567 ] } },
{ "type": "Feature", "properties": { "org_id": "RM3", "name": "NORTHERN CARE ALLIANCE NHS FOUNDATION TRUST", "postcode": "M6 8HD" }, "geometry": { "type": "Point", "coordinates": [ -2.323424, 53.487562 ] } },
{ "type": "Feature", "properties": { "org_id": "RMC", "name": "BOLTON NHS FOUNDATION TRUST", "postcode": "BL4 0JR" }, "geometry": { "type": "Point", "coordinates": [ -2.429892, 53.553973 ] } },
{ "type": "Feature", "properties": { "org_id": "RMP", "name": "TAMESIDE AND GLOSSOP INTEGRATED CARE NHS FOUNDATION TRUST", "postcode": "OL6 9RW" }, "geometry": { "type": "Point", "coordinates": [ -2.071432, 53.491546 ] } },
{ "type": "Feature", "properties": { "org_id": "RN3", "name": "GREAT WESTERN HOSPITALS NHS FOUNDATION TRUST", "postcode": "SN3 6BB" }, "geometry": { "type": "Point", "coordinates": [ -1.727188, 51.538529 ] } },
{ "type": "Feature", "properties": { "org_id": "RN5", "name": "HAMPSHIRE HOSPITALS NHS FOUNDATION TRUST", "postcode": "RG24 9NA" }, "geometry": { "type": "Point", "coordinates": [ -1.1099, 51.280633 ] } },
{ "type": "Feature", "properties": { "org_id": "RN7", "name": "DARTFORD AND GRAVESHAM NHS TRUST", "postcode": "DA2 8DA" }, "geometry": { "type": "Point", "coordinates": [ 0.258673, 51.434952 ] } },
{ "type": "Feature", "properties": { "org_id": "RNA", "name": "THE DUDLEY GROUP NHS FOUNDATION TRUST", "postcode": "DY1 2HQ" }, "geometry": { "type": "Point", "coordinates": [ -2.117684, 52.501908 ] } },
{ "type": "Feature", "properties": { "org_id": "RNN", "name": "NORTH CUMBRIA INTEGRATED CARE NHS FOUNDATION TRUST", "postcode": "CA2 7HY" }, "geometry": { "type": "Point", "coordinates": [ -2.957796, 54.896504 ] } },
{ "type": "Feature", "properties": { "org_id": "RNQ", "name": "KETTERING GENERAL HOSPITAL NHS FOUNDATION TRUST", "postcode": "NN16 8UZ" }, "geometry": { "type": "Point", "coordinates": [ -0.741279, 52.402797 ] } },
{ "type": "Feature", "properties": { "org_id": "RNS", "name": "NORTHAMPTON GENERAL HOSPITAL NHS TRUST", "postcode": "NN1 5BD" }, "geometry": { "type": "Point", "coordinates": [ -0.883829, 52.236068 ] } },
{ "type": "Feature", "properties": { "org_id": "RNZ", "name": "SALISBURY NHS FOUNDATION TRUST", "postcode": "SP2 8BJ" }, "geometry": { "type": "Point", "coordinates": [ -1.789814, 51.04394 ] } },
{ "type": "Feature", "properties": { "org_id": "RP4", "name": "GREAT ORMOND STREET HOSPITAL FOR CHILDREN NHS FOUNDATION TRUST", "postcode": "WC1N 3JH" }, "geometry": { "type": "Point", "coordinates": [ -0.119898, 51.522212 ] } },
{ "type": "Feature", "properties": { "org_id": "RP5", "name": "DONCASTER AND BASSETLAW TEACHING HOSPITALS NHS FOUNDATION TRUST", "postcode": "DN2 5LT" }, "geometry": { "type": "Point", "coordinates": [ -1.108942, 53.530805 ] } },
{ "type": "Feature", "properties": { "org_id": "RP6", "name": "MOORFIELDS EYE HOSPITAL NHS FOUNDATION TRUST", "postcode": "EC1V 2PD" }, "geometry": { "type": "Point", "coordinates": [ -0.089863, 51.527248 ] } },
{ "type": "Feature", "properties": { "org_id": "RPA", "name": "MEDWAY NHS FOUNDATION TRUST", "postcode": "ME7 5NY" }, "geometry": { "type": "Point", "coordinates": [ 0.54209, 51.379861 ] } },
{ "type": "Feature", "properties": { "org_id": "RPC", "name": "QUEEN VICTORIA HOSPITAL NHS FOUNDATION TRUST", "postcode": "RH19 3DZ" }, "geometry": { "type": "Point", "coordinates": [ -0.002873, 51.135069 ] } },
{ "type": "Feature", "properties": { "org_id": "RPY", "name": "THE ROYAL MARSDEN NHS FOUNDATION TRUST", "postcode": "SW3 6JJ" }, "geometry": { "type": "Point", "coordinates": [ -0.172541, 51.490562 ] } },
{ "type": "Feature", "properties": { "org_id": "RQ3", "name": "BIRMINGHAM WOMEN'S AND CHILDREN'S NHS FOUNDATION TRUST", "postcode": "B4 6NH" }, "geometry": { "type": "Point", "coordinates": [ -1.893809, 52.484784 ] } },
{ "type": "Feature", "properties": { "org_id": "RQM", "name": "CHELSEA AND WESTMINSTER HOSPITAL NHS FOUNDATION TRUST", "postcode": "SW10 9NH" }, "geometry": { "type": "Point", "coordinates": [ -0.18162, 51.484309 ] } },
{ "type": "Feature", "properties": { "org_id": "RQW", "name": "THE PRINCESS ALEXANDRA HOSPITAL NHS TRUST", "postcode": "CM20 1QX" }, "geometry": { "type": "Point", "coordinates": [ 0.087315, 51.771322 ] } },
{ "type": "Feature", "properties": { "org_id": "RQX", "name": "HOMERTON HEALTHCARE NHS FOUNDATION TRUST", "postcode": "E9 6SR" }, "geometry": { "type": "Point", "coordinates": [ -0.046072, 51.550635 ] } },
{ "type": "Feature", "properties": { "org_id": "RR7", "name": "GATESHEAD HEALTH NHS FOUNDATION TRUST", "postcode": "NE9 6SX" }, "geometry": { "type": "Point", "coordinates": [ -1.580794, 54.939388 ] } },
{ "type": "Feature", "properties": { "org_id": "RR8", "name": "LEEDS TEACHING HOSPITALS NHS TRUST", "postcode": "LS9 7TF" }, "geometry": { "type": "Point", "coordinates": [ -1.52148, 53.806117 ] } },
{ "type": "Feature", "properties": { "org_id": "RRF", "name": "WRIGHTINGTON, WIGAN AND LEIGH TEACHING HOSPITALS NHS FOUNDATION TRUST", "postcode": "WN1 2NN" }, "geometry": { "type": "Point", "coordinates": [ -2.629091, 53.557755 ] } },
{ "type": "Feature", "properties": { "org_id": "RRJ", "name": "THE ROYAL ORTHOPAEDIC HOSPITAL NHS FOUNDATION TRUST", "postcode": "B31 2AP" }, "geometry": { "type": "Point", "coordinates": [ -1.96116, 52.420088 ] } },
{ "type": "Feature", "properties": { "org_id": "RRK", "name": "UNIVERSITY HOSPITALS BIRMINGHAM NHS FOUNDATION TRUST", "postcode": "B15 2GW" }, "geometry": { "type": "Point", "coordinates": [ -1.942563, 52.451833 ] } },
{ "type": "Feature", "properties": { "org_id": "RRV", "name": "UNIVERSITY COLLEGE LONDON HOSPITALS NHS FOUNDATION TRUST", "postcode": "NW1 2PG" }, "geometry": { "type": "Point", "coordinates": [ -0.137384, 51.525737 ] } },
{ "type": "Feature", "properties": { "org_id": "RTD", "name": "THE NEWCASTLE UPON TYNE HOSPITALS NHS FOUNDATION TRUST", "postcode": "NE7 7DN" }, "geometry": { "type": "Point", "coordinates": [ -1.593393, 55.002783 ] } },
{ "type": "Feature", "properties": { "org_id": "RTE", "name": "GLOUCESTERSHIRE HOSPITALS NHS FOUNDATION TRUST", "postcode": "GL53 7AN" }, "geometry": { "type": "Point", "coordinates": [ -2.071875, 51.892128 ] } },
{ "type": "Feature", "properties": { "org_id": "RTF", "name": "NORTHUMBRIA HEALTHCARE NHS FOUNDATION TRUST", "postcode": "NE29 8NH" }, "geometry": { "type": "Point", "coordinates": [ -1.467353, 55.025248 ] } },
{ "type": "Feature", "properties": { "org_id": "RTG", "name": "UNIVERSITY HOSPITALS OF DERBY AND BURTON NHS FOUNDATION TRUST", "postcode": "DE22 3NE" }, "geometry": { "type": "Point", "coordinates": [ -1.513523, 52.910425 ] } },
{ "type": "Feature", "properties": { "org_id": "RTH", "name": "OXFORD UNIVERSITY HOSPITALS NHS FOUNDATION TRUST", "postcode": "OX3 9DU" }, "geometry": { "type": "Point", "coordinates": [ -1.219773, 51.763867 ] } },
{ "type": "Feature", "properties": { "org_id": "RTK", "name": "ASHFORD AND ST PETER'S HOSPITALS NHS FOUNDATION TRUST", "postcode": "KT16 0PZ" }, "geometry": { "type": "Point", "coordinates": [ -0.527041, 51.377831 ] } },
{ "type": "Feature", "properties": { "org_id": "RTP", "name": "SURREY AND SUSSEX HEALTHCARE NHS TRUST", "postcode": "RH1 5RH" }, "geometry": { "type": "Point", "coordinates": [ -0.161983, 51.219192 ] } },
{ "type": "Feature", "properties": { "org_id": "RTR", "name": "SOUTH TEES HOSPITALS NHS FOUNDATION TRUST", "postcode": "TS4 3BW" }, "geometry": { "type": "Point", "coordinates": [ -1.21482, 54.551768 ] } },
{ "type": "Feature", "properties": { "org_id": "RTX", "name": "UNIVERSITY HOSPITALS OF MORECAMBE BAY NHS FOUNDATION TRUST", "postcode": "LA9 7RG" }, "geometry": { "type": "Point", "coordinates": [ -2.731605, 54.306116 ] } },
{ "type": "Feature", "properties": { "org_id": "RVJ", "name": "NORTH BRISTOL NHS TRUST", "postcode": "BS10 5NB" }, "geometry": { "type": "Point", "coordinates": [ -2.591016, 51.494806 ] } },
{ "type": "Feature", "properties": { "org_id": "RVR", "name": "EPSOM AND ST HELIER UNIVERSITY HOSPITALS NHS TRUST", "postcode": "SM5 1AA" }, "geometry": { "type": "Point", "coordinates": [ -0.183708, 51.380188 ] } },
{ "type": "Feature", "properties": { "org_id": "RVV", "name": "EAST KENT HOSPITALS UNIVERSITY NHS FOUNDATION TRUST", "postcode": "CT1 3NG" }, "geometry": { "type": "Point", "coordinates": [ 1.087113, 51.266593 ] } },
{ "type": "Feature", "properties": { "org_id": "RVW", "name": "NORTH TEES AND HARTLEPOOL NHS FOUNDATION TRUST", "postcode": "TS24 9AH" }, "geometry": { "type": "Point", "coordinates": [ -1.227851, 54.702408 ] } },
{ "type": "Feature", "properties": { "org_id": "RWA", "name": "HULL UNIVERSITY TEACHING HOSPITALS NHS TRUST", "postcode": "HU3 2JZ" }, "geometry": { "type": "Point", "coordinates": [ -0.358153, 53.744134 ] } },
{ "type": "Feature", "properties": { "org_id": "RWD", "name": "UNITED LINCOLNSHIRE TEACHING HOSPITALS NHS TRUST", "postcode": "LN2 5QY" }, "geometry": { "type": "Point", "coordinates": [ -0.519635, 53.233597 ] } },
{ "type": "Feature", "properties": { "org_id": "RWE", "name": "UNIVERSITY HOSPITALS OF LEICESTER NHS TRUST", "postcode": "LE1 5WW" }, "geometry": { "type": "Point", "coordinates": [ -1.135953, 52.6268 ] } },
{ "type": "Feature", "properties": { "org_id": "RWF", "name": "MAIDSTONE AND TUNBRIDGE WELLS NHS TRUST", "postcode": "ME16 9QQ" }, "geometry": { "type": "Point", "coordinates": [ 0.484004, 51.273661 ] } },
{ "type": "Feature", "properties": { "org_id": "RWG", "name": "WEST HERTFORDSHIRE TEACHING HOSPITALS NHS TRUST", "postcode": "WD18 0HB" }, "geometry": { "type": "Point", "coordinates": [ -0.404165, 51.648926 ] } },
{ "type": "Feature", "properties": { "org_id": "RWH", "name": "EAST AND NORTH HERTFORDSHIRE TEACHING NHS TRUST", "postcode": "SG1 4AB" }, "geometry": { "type": "Point", "coordinates": [ -0.211889, 51.924246 ] } },
{ "type": "Feature", "properties": { "org_id": "RWJ", "name": "STOCKPORT NHS FOUNDATION TRUST", "postcode": "SK2 7JE" }, "geometry": { "type": "Point", "coordinates": [ -2.132019, 53.383794 ] } },
{ "type": "Feature", "properties": { "org_id": "RWP", "name": "WORCESTERSHIRE ACUTE HOSPITALS NHS TRUST", "postcode": "WR5 1DD" }, "geometry": { "type": "Point", "coordinates": [ -2.181154, 52.191205 ] } },
{ "type": "Feature", "properties": { "org_id": "RWW", "name": "NORTH CHESHIRE AND MERSEY NHS FOUNDATION TRUST", "postcode": "WA5 1QG" }, "geometry": { "type": "Point", "coordinates": [ -2.610717, 53.393989 ] } },
{ "type": "Feature", "properties": { "org_id": "RWY", "name": "CALDERDALE AND HUDDERSFIELD NHS FOUNDATION TRUST", "postcode": "HD3 3EA" }, "geometry": { "type": "Point", "coordinates": [ -1.816339, 53.655489 ] } },
{ "type": "Feature", "properties": { "org_id": "RX1", "name": "NOTTINGHAM UNIVERSITY HOSPITALS NHS TRUST", "postcode": "NG7 2UH" }, "geometry": { "type": "Point", "coordinates": [ -1.185953, 52.94382 ] } },
{ "type": "Feature", "properties": { "org_id": "RXC", "name": "EAST SUSSEX HEALTHCARE NHS TRUST", "postcode": "TN37 7PT" }, "geometry": { "type": "Point", "coordinates": [ 0.561978, 50.88769 ] } },
{ "type": "Feature", "properties": { "org_id": "RXF", "name": "MID YORKSHIRE TEACHING NHS TRUST", "postcode": "WF1 4DG" }, "geometry": { "type": "Point", "coordinates": [ -1.488558, 53.692434 ] } },
{ "type": "Feature", "properties": { "org_id": "RXK", "name": "SANDWELL AND WEST BIRMINGHAM HOSPITALS NHS TRUST", "postcode": "B66 2QT" }, "geometry": { "type": "Point", "coordinates": [ -1.949846, 52.491258 ] } },
{ "type": "Feature", "properties": { "org_id": "RXL", "name": "BLACKPOOL TEACHING HOSPITALS NHS FOUNDATION TRUST", "postcode": "FY3 8NR" }, "geometry": { "type": "Point", "coordinates": [ -3.016275, 53.820675 ] } },
{ "type": "Feature", "properties": { "org_id": "RXN", "name": "LANCASHIRE TEACHING HOSPITALS NHS FOUNDATION TRUST", "postcode": "PR2 9HT" }, "geometry": { "type": "Point", "coordinates": [ -2.706842, 53.791521 ] } },
{ "type": "Feature", "properties": { "org_id": "RXP", "name": "COUNTY DURHAM AND DARLINGTON NHS FOUNDATION TRUST", "postcode": "DL3 6HX" }, "geometry": { "type": "Point", "coordinates": [ -1.563742, 54.530385 ] } },
{ "type": "Feature", "properties": { "org_id": "RXQ", "name": "BUCKINGHAMSHIRE HEALTHCARE NHS TRUST", "postcode": "HP7 0JD" }, "geometry": { "type": "Point", "coordinates": [ -0.621408, 51.663005 ] } },
{ "type": "Feature", "properties": { "org_id": "RXR", "name": "EAST LANCASHIRE HOSPITALS NHS TRUST", "postcode": "BB2 3HH" }, "geometry": { "type": "Point", "coordinates": [ -2.462715, 53.735575 ] } },
{ "type": "Feature", "properties": { "org_id": "RXW", "name": "THE SHREWSBURY AND TELFORD HOSPITAL NHS TRUST", "postcode": "SY3 8XQ" }, "geometry": { "type": "Point", "coordinates": [ -2.793689, 52.709274 ] } },
{ "type": "Feature", "properties": { "org_id": "RYJ", "name": "IMPERIAL COLLEGE HEALTHCARE NHS TRUST", "postcode": "W2 1BL" }, "geometry": { "type": "Point", "coordinates": [ -0.174387, 51.517542 ] } },
{ "type": "Feature", "properties": { "org_id": "RYR", "name": "UNIVERSITY HOSPITALS SUSSEX NHS FOUNDATION TRUST", "postcode": "BN11 2DH" }, "geometry": { "type": "Point", "coordinates": [ -0.363404, 50.816683 ] } }
]
}
